[
  {
    "id": "1",
    "title": "우리의 첫만남",
    "date": "2022-10-09",
    "location": {
      "lat": 37.5563,
      "lng": 126.9237,
      "name": "홍대"
    },
    "images": [
      "/images/1.jpeg",
      "/images/2.jpeg",
      "/images/3.jpeg",
      "/images/4.jpeg"
    ],
    "description": "우리가 처음으로 만나 정협이가 사랑을 다짐했던 날",
    "category": "anniversary",
    "weather": "비",
    "music": ""
  },
  {
    "id": "2",
    "title": "우리의 첫 경주 데이트",
    "date": "2022-11-15",
    "location": {
      "lat": 35.8562,
      "lng": 129.2247,
      "name": "경주"
    },
    "images": [
      "/images/5.jpeg",
      "/images/6.jpeg",
      "/images/7.jpeg",
      "/images/8.jpeg",
      "/images/9.jpeg"
    ],
    "description": "솔민이가 나를 위해 처음으로 와준 날",
    "category": "travel",
    "weather": "맑음",
    "music": ""
  },
  {
    "id": "3",
    "title": "솔민이와 보내는 첫 겨울",
    "date": "2022-12-15",
    "location": {
      "lat": 37.5611,
      "lng": 126.8373,
      "name": "서울특별시 발산역"
    },
    "images": [
      "/images/10.jpeg",
      "/images/11.jpeg",
      "/images/12.jpeg",
      "/images/13.jpeg",
      "/images/14.jpeg"
    ],
    "description": "솔민이와 학교 투어 그리고 사귀고 나서 내가 준 첫 선물",
    "category": "anniversary",
    "weather": "맑음"
  },
  {
    "id": "4",
    "title": "새해 첫날, 첫 사랑 고백",
    "date": "2023-01-01",
    "location": {
      "lat": 37.6094,
      "lng": 126.9723,
      "name": "서울특별시 북악스카이웨이"
    },
    "images": [
      "/images/15.jpeg",
      "/images/16.jpeg"
    ],
    "description": "북악스카이웨이에서 함께 1월 1일 카운트다운을 하고, 솔민이에게 처음으로 '사랑한다'는 말을 들은 날.",
    "category": "anniversary",
    "weather": "맑음",
    "music": ""
  },
  {
    "id": "5",
    "title": "솔민이와 100일",
    "date": "2023-01-16",
    "location": {
      "lat": 37.7151,
      "lng": 126.7157,
      "name": "김포"
    },
    "images": [
      "/images/17.jpeg",
      "/images/18.jpeg"
    ],
    "description": "솔민이와 100일을 기념하며 첫 커플 팔찌를 맞춘 날. 케이크의 그림처럼 언제나 서로를 아껴주길.",
    "category": "anniversary",
    "weather": "",
    "music": ""
  },
  {
    "id": "6",
    "title": "솔민이와 여수 여행",
    "date": "2023-02-14",
    "location": {
      "lat": 34.7604,
      "lng": 127.6622,
      "name": "여수시"
    },
    "images": [
      "/images/24.jpeg",
      "/images/25.jpeg",
      "/images/26.jpeg",
      "/images/27.jpeg",
      "/images/28.jpeg",
      "/images/29.jpeg",
      "/images/30.jpeg"
    ],
    "description": "솔민이와 함께한 첫 여수 여행. 비 오는 밤의 유람선, 향일암에서의 기도, 아쿠아리움까지 모든 순간이 잊지 못할 추억이야.",
    "category": "travel",
    "weather": "비",
    "music": ""
  },
  {
    "id": "7",
    "title": "첫 캐리비안 베이 더블데이트",
    "date": "2023-07-15",
    "location": {
      "lat": 37.2947,
      "lng": 127.2045,
      "name": "용인 캐리비안 베이"
    },
    "images": [
      "/images/31.jpeg",
      "/images/32.jpeg"
    ],
    "description": "솔민이와 함께한 첫 더블데이트이자 첫 캐리비안 베이. 물놀이하는 모습도 너무 예뻤던 하루.",
    "category": "date",
    "weather": "흐림",
    "music": ""
  },
  {
    "id": "8",
    "title": "솔민이와 첫 인천",
    "date": "2023-08-20",
    "location": {
      "lat": 37.4563,
      "lng": 126.7052,
      "name": "인천시"
    },
    "images": [
      "/images/33.jpeg",
      "/images/34.jpeg"
    ],
    "description": "솔민이와 함께한 첫 인천 나들이. 아름다운 노을을 함께 바라보며 잊지 못할 추억을 만들었어.",
    "category": "travel",
    "weather": "맑음",
    "music": ""
  },{
    "id": "9",
    "title": "명동성당 데이트",
    "date": "2023-09-15",
    "location": {
      "lat": 37.5633,
      "lng": 126.9872,
      "name": "명동성당"
    },
    "images": [
      "/images/37.jpeg",
      "/images/38.jpeg",
      "/images/39.jpeg"
    ],
    "description": "솔민이와 함께한 명동 데이트. 고즈넉한 명동성당의 밤 풍경이 아름다웠던 날.",
    "category": "date",
    "weather": "맑음",
    "music": ""
  },{
    "id": "10",
    "title": "솔민이와의 1주년",
    "date": "2023-10-09",
    "location": {
      "lat": 37.5301,
      "lng": 127.1238,
      "name": "서울특별시 강동구"
    },
    "images": [
      "/images/40.jpeg",
      "/images/41.jpeg"
    ],
    "description": "솔민이와 함께한 감격의 1주년. 우리의 시간이 이대로 멈추었으면 하고 바랄 만큼 행복했던 날.",
    "category": "anniversary",
    "weather": "",
    "music": ""
  },{
    "id": "11",
    "title": "도리마을 가을 데이트",
    "date": "2023-11-10",
    "location": {
      "lat": 35.7851,
      "lng": 129.1232,
      "name": "경주시 도리마을"
    },
    "images": [
      "/images/42.jpeg",
      "/images/43.jpeg",
      "/images/44.jpeg"
    ],
    "description": "노란 은행나무 숲이 장관이었던 도리마을에서 함께한 가을. 평생 잊지 못할 아름다운 추억.",
    "category": "travel",
    "weather": "맑음",
    "music": ""
  },{
    "id": "12",
    "title": "솔민이와 두번째 크리스마스",
    "date": "2023-12-25",
    "location": {
      "lat": 37.5735,
      "lng": 126.9789,
      "name": "서울특별시 종로구"
    },
    "images": [
      "/images/47.jpeg",
      "/images/48.jpeg"
    ],
    "description": "서로를 위한 케이크를 만들며 보낸 우리의 두번째 크리스마스. 함께여서 더 따뜻하고 특별했던 하루.",
    "category": "anniversary",
    "weather": "",
    "music": "Mistletoe - Justin Bieber"
  },{
    "id": "13",
    "title": "함께 본 2023년의 마지막 노을",
    "date": "2023-12-31",
    "location": {
      "lat": 37.5662,
      "lng": 126.8837,
      "name": "서울특별시 하늘공원"
    },
    "images": [
      "/images/49.jpeg",
      "/images/50.jpeg",
      "/images/51.jpeg"
    ],
    "description": "솔민이가 먼저 보러 가자고 제안했던 2023년의 마지막 노을. 솔민이와 평생 볼 수 있길 앞으로 100번은 더 함께 보고 싶은 아니 영원히",
    "category": "anniversary",
    "weather": "맑음",
    "music": ""
  },{
    "id": "14",
    "title": "첫 클래식 공연 데이트",
    "date": "2024-01-20",
    "location": {
      "lat": 37.4786,
      "lng": 127.0114,
      "name": "예술의 전당"
    },
    "images": [
      "/images/52.jpeg",
      "/images/53.jpeg"
    ],
    "description": "솔민이 덕분에 처음 가본 클래식 공연. 솔민이가 좋아하는 라흐마니노프의 음악을 함께 들으며 잊지 못할 추억을 만들었다.",
    "category": "date",
    "weather": "",
    "music": "라흐마니노프 (Rachmaninoff)"
  },{
    "id": "15",
    "title": "함께하는 솔민이의 두번째 생일",
    "date": "2024-04-21",
    "location": {
      "lat": 37.5275,
      "lng": 127.0275,
      "name": "서울특별시 압구정"
    },
    "images": [
      "/images/54.jpeg",
      "/images/55.jpeg"
    ],
    "description": "꽃보다 아름다운 솔민이와 함께한 두번째 생일. 부족한 나에게 천사같은 미소로 화답해주어 세상 가장 행복했던 날.",
    "category": "anniversary",
    "weather": "맑음",
    "music": ""
  },{
    "id": "16",
    "title": "우리의 2주년 스냅 촬영",
    "date": "2024-10-09",
    "location": {
      "lat": 37.5098,
      "lng": 126.9822,
      "name": "동작대교"
    },
    "images": [
      "/images/56.jpg",
      "/images/57.jpg",
      "/images/58.jpg"
    ],
    "description": "솔민이와 함께한 첫 스냅 촬영. 한강의 야경보다 더 빛났던 너의 모습, 평생 잊지 못할 거야.",
    "category": "anniversary",
    "weather": "맑음",
    "music": ""
  },{
    "id": "23",
    "title": "가장 행복한 순간들",
    "date": "2025-07-29",
    "location": {
      "lat": 38.2070,
      "lng": 128.5918,
      "name": "강원도 속초"
    },
    "images": [
      "/images/61.jpeg",
      "/images/62.jpeg",
      "/images/63.jpeg",
      "/images/64.jpeg",
      "/images/65.jpeg",
      "/images/66.jpeg",
      "/images/67.jpeg",
      "/images/68.jpeg",
      "/images/69.jpeg",
      "/images/70.jpeg"
    ],
    "description": "솔민아 우리가 함께 한지 벌써 많은 시간이 흘렀지 오랜만에 솔민이와의 과거를 여행하며 사진을 보는데 차마 내가 여기에 다 담지 못할 정도의 추억이 우리를 지탱하고 있더라구. 솔민이와의 추억 하나하나 이쁘게 찍힌 솔민이의 사진을 보면 너무나 짠하고 눈물 나고 막 그래 아직도 그런데 우리둘의 정말 찐한 기쁨과 서로의 미소는 정말 잘나오기를 위해 찍은 사진이 아닌 엄청 평범하고 우리만 볼 수 있는 그런 사진속에 있더라구. 나는 아마 그런 평범한 사진속의 솔민이가 너무나 사랑스러워 앞으로 평생을 사랑에 빠져살지 모르겠다는 생각을 하기도 해. 나의 작은 세상속에 뿌리깊은 나무처럼 벌써 울창하게 자라 나의 모든것이 되어주는 솔민아 나도 솔민이의 마음에 아낌없이 주는 나무가 되어 평생 지탱해줄게 오빠랑 결혼해줄래? ",
    "category": "moments",
    "weather": "",
    "music": ""
  }
]