[
  {
    "id": "1",
    "title": "우리의 첫만남",
    "date": "2022-10-10",
    "location": {
      "lat": 37.5563,
      "lng": 126.9237,
      "name": "홍대"
    },
    "images": [
      "/images/1.jpeg",
      "/images/2.jpeg",
      "/images/3.jpeg",
      "/images/4.jpeg"
    ],
    "description": "우리가 처음으로 만나 정협이가 사랑을 다짐했던 날",
    "category": "anniversary",
    "weather": "비",
    "music": ""
  },
  {
    "id": "2",
    "title": "우리의 첫 경주 데이트",
    "date": "2022-11-15",
    "location": {
      "lat": 35.8562,
      "lng": 129.2247,
      "name": "경주"
    },
    "images": [
      "/images/5.jpeg",
      "/images/6.jpeg",
      "/images/7.jpeg",
      "/images/8.jpeg",
      "/images/9.jpeg"
    ],
    "description": "솔민이가 나를 위해 처음으로 와준 날",
    "category": "travel",
    "weather": "맑음",
    "music": ""
  },
  {
    "id": "3",
    "title": "솔민이와 보내는 첫 겨울",
    "date": "2022-12-15",
    "location": {
      "lat": 37.5611,
      "lng": 126.8373,
      "name": "서울특별시 발산역"
    },
    "images": [
      "/images/10.jpeg",
      "/images/11.jpeg",
      "/images/12.jpeg",
      "/images/13.jpeg",
      "/images/14.jpeg"
    ],
    "description": "솔민이와 학교 투어 & 나의 첫 선물",
    "category": "anniversary",
    "weather": "맑음"
  },
  {
    "id": "4",
    "title": "새해 첫날, 첫 사랑 고백",
    "date": "2023-01-01",
    "location": {
      "lat": 37.6094,
      "lng": 126.9723,
      "name": "서울특별시 북악스카이웨이"
    },
    "images": [
      "/images/15.jpeg",
      "/images/16.jpeg"
    ],
    "description": "북악스카이웨이에서 함께 1월 1일 카운트다운을 하고, 솔민이에게 처음으로 '사랑한다'는 말을 들은 잊지 못할 날.",
    "category": "anniversary",
    "weather": "맑음",
    "music": ""
  },
  {
    "id": "5",
    "title": "솔민이와 100일",
    "date": "2023-01-16",
    "location": {
      "lat": 37.7151,
      "lng": 126.7157,
      "name": "김포"
    },
    "images": [
      "/images/17.jpeg",
      "/images/18.jpeg"
    ],
    "description": "솔민이와 100일을 기념하며 첫 커플 팔찌를 맞춘 날. 케이크의 그림처럼 언제나 서로를 아껴주길.",
    "category": "anniversary",
    "weather": "",
    "music": ""
  },
  {
    "id": "6",
    "title": "솔민이와 여수 여행",
    "date": "",
    "location": {
      "lat": 34.7604,
      "lng": 127.6622,
      "name": "여수시"
    },
    "images": [
      "/images/24.jpeg",
      "/images/25.jpeg",
      "/images/26.jpeg",
      "/images/27.jpeg",
      "/images/28.jpeg",
      "/images/29.jpeg",
      "/images/30.jpeg"
    ],
    "description": "솔민이와 함께한 첫 여수 여행. 비 오는 밤의 유람선, 향일암에서의 기도, 아쿠아리움까지 모든 순간이 잊지 못할 추억이야.",
    "category": "travel",
    "weather": "비",
    "music": ""
  }
]